hacheon = [
        {
            "localName": "온천하류",
            "siteCode": "1005",
            "lat": "35.189054",
            "lng": "129.114427"
        },
        {
            "localName": "원동교",
            "siteCode": "1006",
            "lat": "35.194176",
            "lng": "129.114176"
        },
        {
            "localName": "연안교",
            "siteCode": "1004",
            "lat": "35.193512",
            "lng": "129.091071"
        },
        {
            "localName": "중앙여고",
            "siteCode": "1007",
            "lat": "35.208255",
            "lng": "129.078462"
        },
        {
            "localName": "온천장역 북측",
            "siteCode": "1008",
            "lat": "35.223701",
            "lng": "129.088286"
        },
        {
            "localName": "동천교",
            "siteCode": "3",
            "lat": "35.217262",
            "lng": "129.118466"
        },
        {
            "localName": "장전동역",
            "siteCode": "1003",
            "lat": "35.238128",
            "lng": "129.088261"
        },
        {
            "localName": "범5교",
            "siteCode": "2",
            "lat": "35.141433",
            "lng": "129.064531"
        },
        {
            "localName": "화명교",
            "siteCode": "1",
            "lat": "35.239789",
            "lng": "129.014132"
        },
        {
            "localName": "대천교",
            "siteCode": "27",
            "lat": "35.241487",
            "lng": "129.017887"
        },
        {
            "localName": "동백천",
            "siteCode": "21",
            "lat": "35.289895",
            "lng": "129.255051"
        },
        {
            "localName": "임기천",
            "siteCode": "22",
            "lat": "35.319691",
            "lng": "129.119476"
        },
        {
            "localName": "용소천",
            "siteCode": "23",
            "lat": "35.343809",
            "lng": "129.245595"
        },
        {
            "localName": "효암천",
            "siteCode": "24",
            "lat": "35.368811",
            "lng": "129.268081"
        },
        {
            "localName": "고래골천",
            "siteCode": "25",
            "lat": "35.356201",
            "lng": "129.249751"
        },
        {
            "localName": "이곡천",
            "siteCode": "26",
            "lat": "35.274631",
            "lng": "129.179375"
        },
        {
            "localName": "삼락22호교",
            "siteCode": "28",
            "lat": "35.169495",
            "lng": "128.978497"
        },
        {
            "localName": "학장교",
            "siteCode": "4",
            "lat": "35.141887",
            "lng": "128.983776"
        }
    ]